ID,Name,Latitude,Longitude,BikesAvailable,EmptySlots,Installed,Locked,Temporary,UpdateTime
1,"River Street , Clerkenwell",51.52916347,-0.109970527,3,16,true,false,false,10:30
2,"Phillimore Gardens, Kensington",51.49960695,-0.197574246,31,6,true,false,false,10:30
3,"Christopher Street, Liverpool Street",51.52128377,-0.084605692,31,0,true,false,false,10:30
4,"St. Chad's Street, King's Cross",51.53005939,-0.120973687,7,16,true,false,false,10:30
5,"Sedding Street, Sloane Square",51.49313,-0.156876,25,0,true,false,false,10:30
6,"Broadcasting House, Marylebone",51.51811784,-0.144228881,15,1,true,false,false,10:30
7,"Charlbert Street, St. John's Wood",51.53430039,-0.1680743,0,14,true,false,false,10:30
8,"Lodge Road, St. John's Wood",51.52834133,-0.170134484,7,9,true,false,false,10:30
9,"New Globe Walk, Bankside",51.5073853,-0.096440751,19,0,true,false,false,10:30
10,"Park Street, Bankside",51.50597426,-0.092754157,17,0,true,false,false,10:30
11,"Brunswick Square, Bloomsbury",51.52395143,-0.122502346,0,22,true,false,false,10:30
12,"Malet Street, Bloomsbury",51.52168078,-0.130431727,22,27,true,false,false,10:30
13,"Scala Street, Fitzrovia",51.51991453,-0.136039674,21,0,true,false,false,10:30
14,"Belgrove Street , King's Cross",51.52994371,-0.123616824,7,10,true,false,false,10:30
15,"Great Russell Street, Bloomsbury",51.51772703,-0.127854211,22,4,true,false,false,10:30
17,"Hatton Wall, Holborn",51.5216612,-0.109006325,18,7,true,false,false,10:30
16,"Cartwright Gardens , Bloomsbury",51.52635795,-0.125979294,1,20,true,false,false,10:30
19,"Taviton Street, Bloomsbury",51.52505093,-0.131161087,6,22,true,false,false,10:30
18,"Drury Lane, Covent Garden",51.51477076,-0.12221963,23,3,true,false,false,10:30
21,"Hampstead Road (Cartmel), Euston",51.53007835,-0.13884627,0,16,true,false,false,10:30
20,"Drummond Street , Euston",51.52773634,-0.135273468,3,24,true,false,false,10:30
23,"Red Lion Square, Holborn",51.51943538,-0.119123345,6,9,true,false,false,10:30
22,"Northington Street , Holborn",51.5222641,-0.114079481,18,1,true,false,false,10:30
25,"Doric Way , Somers Town",51.5288338,-0.132250369,10,21,true,false,false,10:30
24,"British Museum, Bloomsbury",51.51908011,-0.124678402,23,11,true,false,false,10:30
27,"Bouverie Street, Temple",51.51382102,-0.107927706,24,9,true,false,false,10:30
26,"Ampton Street , Clerkenwell",51.52728093,-0.11829517,0,21,true,false,false,10:30
29,"Hereford Road, Bayswater",51.513735,-0.193487,1,21,true,false,false,10:30
28,"Bolsover Street, Fitzrovia",51.52351808,-0.143613641,12,7,true,false,false,10:30
31,"Fanshaw Street, Hoxton",51.52953709,-0.083353323,0,31,true,false,false,10:30
30,"Windsor Terrace, Hoxton",51.52915444,-0.093421615,4,19,true,false,false,10:30
34,"Pancras Road, King's Cross",51.5341235,-0.129386874,0,15,true,false,false,10:30
32,"Leonard Circus , Shoreditch",51.52469624,-0.084439283,41,0,true,false,false,10:30
33,"Altab Ali Park, Whitechapel",51.51681603,-0.067827542,2,13,true,false,false,10:30
38,"Abingdon Villas, Kensington",51.4973875,-0.197245586,9,8,true,false,false,10:30
39,"Shoreditch High Street, Shoreditch",51.5263778,-0.078130921,0,38,true,false,false,10:30
36,"De Vere Gardens, Kensington",51.50173726,-0.184980612,13,15,true,false,false,10:30
37,"Penywern Road, Earl's Court",51.49159394,-0.192369256,6,10,true,false,false,10:30
42,"Wenlock Road , Hoxton",51.53099181,-0.093903825,1,27,true,false,false,10:30
43,"Crawford Street, Marylebone",51.52026,-0.157183945,5,12,true,false,false,10:30
40,"Commercial Street, Shoreditch",51.52127071,-0.0755789,2,13,true,false,false,10:30
41,"Sun Street, Liverpool Street",51.52001715,-0.083911168,24,1,true,false,false,10:30
46,"Nesham Street, Wapping",51.507131,-0.06691,11,5,true,false,false,10:30
47,"Warwick Avenue Station, Maida Vale",51.52334476,-0.183846408,0,18,true,false,false,10:30
44,"Bruton Street, Mayfair",51.51073687,-0.144165239,5,6,true,false,false,10:30
45,"Harewood Avenue, Marylebone",51.52231968,-0.163849118,18,0,true,false,false,10:30
51,"Finsbury Library , Finsbury",51.52671796,-0.104298194,24,2,true,false,false,10:30
50,"East Road, Hoxton",51.52867339,-0.087459376,3,23,true,false,false,10:30
49,"Curzon Street, Mayfair",51.50706909,-0.145904427,16,0,true,false,false,10:30
48,"Godliman Street, St. Paul's",51.51248445,-0.099141408,16,9,true,false,false,10:30
55,"Finsbury Circus, Liverpool Street",51.51707521,-0.086685542,23,9,true,false,false,10:30
54,"Golden Lane, Barbican",51.52174785,-0.094475072,26,0,true,false,false,10:30
53,"Grafton Street, Mayfair",51.5099923,-0.143495266,17,1,true,false,false,10:30
52,"Roscoe Street, St. Luke's",51.52295439,-0.094934859,16,0,true,false,false,10:30
59,"Rodney Street, Angel",51.53176825,-0.114329032,0,28,true,false,false,10:30
58,"New Inn Yard, Shoreditch",51.52452699,-0.079248081,15,2,true,false,false,10:30
57,"Guilford Street , Bloomsbury",51.52334672,-0.120202614,16,21,true,false,false,10:30
56,"Paddington Street, Marylebone",51.52058381,-0.154701411,3,13,true,false,false,10:30
63,"Murray Grove , Hoxton",51.53089041,-0.089782579,0,27,true,false,false,10:30
62,"Cotton Garden Estate, Kennington",51.4907579,-0.106323685,0,23,true,false,false,10:30
61,"Great Dover Street, Borough",51.49738251,-0.089446947,12,21,true,false,false,10:30
60,"Lisson Grove, St. John's Wood",51.52644828,-0.172190727,1,17,true,false,false,10:30
68,"Theobalds Road , Holborn",51.52059681,-0.116688468,23,3,true,false,false,10:30
69,"Euston Road, Euston",51.5262363,-0.134407652,16,7,true,false,false,10:30
70,"Calshot Street , King's Cross",51.53136059,-0.117069978,2,22,true,false,false,10:30
71,"Newgate Street , St. Paul's",51.5154186,-0.098850915,32,0,true,false,false,10:30
64,"William IV Street, Strand",51.50946212,-0.124749274,13,12,true,false,false,10:30
65,"Gower Place , Euston",51.52522753,-0.13518856,7,10,true,false,false,10:30
66,"Holborn Circus, Holborn",51.51795029,-0.108657431,38,1,true,false,false,10:30
67,"Hatton Garden, Holborn",51.51882555,-0.108028472,18,8,true,false,false,10:30
76,"Longford Street, Regent's Park",51.52559505,-0.144083893,10,11,true,false,false,10:30
77,"Russell Square Station, Bloomsbury",51.52341837,-0.124121774,0,25,true,false,false,10:30
72,"Farringdon Lane, Clerkenwell",51.52352001,-0.108340165,9,7,true,false,false,10:30
73,"Old Street Station, St. Luke's",51.52572618,-0.088486188,10,27,true,false,false,10:30
74,"Vauxhall Cross, Vauxhall",51.48591714,-0.124469948,12,5,true,false,false,10:30
75,"Torrens Street, Angel",51.53219984,-0.105480698,1,18,true,false,false,10:30
85,"Tanner Street, Bermondsey",51.50064702,-0.078600401,1,18,true,false,false,10:30
84,"Breams Buildings, Holborn",51.51593725,-0.111778348,24,0,true,false,false,10:30
87,"Devonshire Square, Liverpool Street",51.51646835,-0.079684557,14,0,true,false,false,10:30
86,"Sancroft Street, Vauxhall",51.48947903,-0.115156562,1,23,true,false,false,10:30
81,"Great Titchfield Street, Fitzrovia",51.52025302,-0.141327271,18,1,true,false,false,10:30
80,"Webber Street , Southwark",51.50069361,-0.102091246,10,14,true,false,false,10:30
83,"Panton Street, West End",51.50963938,-0.131510949,15,6,true,false,false,10:30
82,"Chancery Lane, Holborn",51.514274,-0.111257,13,0,true,false,false,10:30
93,"Cloudesley Road, Angel",51.53440868,-0.109025404,1,36,true,false,false,10:30
92,"Borough Road, Elephant & Castle",51.49889832,-0.100440521,30,10,true,false,false,10:30
95,"Aldersgate Street, Barbican",51.5208417,-0.097340162,14,0,true,false,false,10:30
94,"Bricklayers Arms, Borough",51.49506109,-0.085814489,0,28,true,false,false,10:30
89,"Tavistock Place, Bloomsbury",51.5262503,-0.123509611,1,18,true,false,false,10:30
88,"Bayley Street , Bloomsbury",51.51858757,-0.132053392,25,0,true,false,false,10:30
91,"Walnut Tree Walk, Vauxhall",51.49368637,-0.111014912,0,20,true,false,false,10:30
90,"Harrington Square, Camden Town",51.53301907,-0.139174593,3,24,true,false,false,10:30
102,"Jewry Street, Aldgate",51.51340693,-0.076793375,17,0,true,false,false,10:30
103,"Vicarage Gate, Kensington",51.50472376,-0.192538767,0,18,true,false,false,10:30
100,"Albert Embankment, Vauxhall",51.49043573,-0.122806861,16,8,true,false,false,10:30
101,"Queen Street, Bank",51.51155322,-0.0929401,19,3,true,false,false,10:30
98,"Hampstead Road, Euston",51.52554222,-0.138231303,10,44,true,false,false,10:30
99,"Old Quebec Street, Marylebone",51.51457763,-0.158264483,15,1,true,false,false,10:30
96,"Falkirk Street, Hoxton",51.53095071,-0.078505384,10,16,true,false,false,10:30
97,"Gloucester Road (North), Kensington",51.49792478,-0.183834706,15,1,true,false,false,10:30
110,"Wellington Road, St. John's Wood",51.53304322,-0.172528678,6,10,true,false,false,10:30
111,"Park Lane , Hyde Park",51.5100172,-0.157275636,12,16,true,false,false,10:30
108,"Abbey Orchard Street, Westminster",51.49812559,-0.132102166,23,6,true,false,false,10:30
109,"Soho Square , Soho",51.51563144,-0.132328837,29,2,true,false,false,10:30
106,"Woodstock Street, Mayfair",51.51410514,-0.147301667,13,7,true,false,false,10:30
107,"Finsbury Leisure Centre, St. Luke's",51.52600832,-0.096317627,13,6,true,false,false,10:30
104,"Crosswall, Tower",51.51159481,-0.077121322,24,10,true,false,false,10:30
105,"Westbourne Grove, Bayswater",51.51552971,-0.190240716,12,14,true,false,false,10:30
119,"Bath Street, St. Luke's",51.52589324,-0.090847761,5,11,true,false,false,10:30
118,"Rochester Row, Westminster",51.49582705,-0.13547809,6,7,true,false,false,10:30
117,"Lollard Street, Vauxhall",51.49288067,-0.114934001,3,21,true,false,false,10:30
116,"Little Argyll Street, West End",51.51449962,-0.141423695,20,0,true,false,false,10:30
115,"Braham Street, Aldgate",51.51423368,-0.073537654,32,0,true,false,false,10:30
114,"Park Road (Baker Street), Regent's Park",51.52451738,-0.158963647,16,6,true,false,false,10:30
113,"Gloucester Road (Central), South Kensington",51.49646288,-0.183289032,12,6,true,false,false,10:30
112,"Stonecutter Street, Holborn",51.51580998,-0.105270275,35,9,true,false,false,10:30
127,"Wood Street, Guildhall",51.51700801,-0.09388536,15,0,true,false,false,10:30
126,"Museum of London, Barbican",51.51782144,-0.096496865,48,0,true,false,false,10:30
125,"Borough High Street, The Borough",51.50069491,-0.094524319,13,8,true,false,false,10:30
124,"Eaton Square, Belgravia",51.49654462,-0.150905245,11,7,true,false,false,10:30
123,"St. John Street, Finsbury",51.52836014,-0.104724625,3,15,true,false,false,10:30
122,"Norton Folgate, Liverpool Street",51.52111369,-0.078869751,18,4,true,false,false,10:30
121,"Baker Street, Marylebone",51.51891348,-0.156166631,19,3,true,false,false,10:30
120,"The Guildhall, Guildhall",51.51573534,-0.093080779,14,2,true,false,false,10:30
137,"Bourne Street, Belgravia",51.49087475,-0.153319609,7,9,true,false,false,10:30
136,"Queen Victoria Street, St. Paul's",51.51196176,-0.097441687,29,1,true,false,false,10:30
139,"Lambeth Road, Vauxhall",51.49488108,-0.117974901,17,1,true,false,false,10:30
138,"Green Street, Mayfair",51.51227622,-0.157436972,4,14,true,false,false,10:30
141,"Chapel Place, Marylebone",51.51530805,-0.147203711,21,8,true,false,false,10:30
140,"Finsbury Square , Moorgate",51.52096262,-0.085634242,25,8,true,false,false,10:30
143,"Pont Street, Knightsbridge",51.4968865,-0.161203828,22,2,true,false,false,10:30
142,"West Cromwell Road, Earl's Court",51.49372451,-0.198286569,0,23,true,false,false,10:30
129,"Golden Square, Soho",51.5118973,-0.137043852,15,3,true,false,false,10:30
128,"Emperor's Gate, South Kensington",51.49536226,-0.185296516,1,21,true,false,false,10:30
131,"Eversholt Street , Camden Town",51.53300545,-0.136792671,6,10,true,false,false,10:30
130,"Tower Gardens , Tower",51.50950627,-0.075459482,23,0,true,false,false,10:30
133,"Derry Street, Kensington",51.50136494,-0.191462381,15,2,true,false,false,10:30
132,"Bethnal Green Road, Shoreditch",51.52364804,-0.074754872,0,33,true,false,false,10:30
135,"Clerkenwell Green, Clerkenwell",51.52326004,-0.104708922,17,3,true,false,false,10:30
134,"Wapping High Street, Wapping",51.504904,-0.06797,12,8,true,false,false,10:30
152,"Hampton Street, Walworth",51.49217002,-0.101536865,0,19,true,false,false,10:30
153,"Bayswater Road, Hyde Park",51.51183419,-0.174292825,11,15,true,false,false,10:30
154,"Waterloo Station 3, Waterloo",51.50379168,-0.11282408,0,33,true,false,false,10:30
155,"Lexham Gardens, Kensington",51.49586666,-0.191933711,1,17,true,false,false,10:30
156,"New Kent Road, Borough",51.49443626,-0.092921165,13,20,true,false,false,10:30
157,"Wright's Lane, Kensington",51.50039792,-0.193068385,10,26,true,false,false,10:30
158,"Trebovir Road, Earl's Court",51.49085368,-0.196170309,14,3,true,false,false,10:30
159,"Great Marlborough Street, Soho",51.51461995,-0.137841333,39,0,true,false,false,10:30
144,"Kennington Cross, Kennington",51.48894022,-0.111435796,1,46,true,false,false,10:30
145,"Ilchester Place, Kensington",51.50074359,-0.202759212,10,14,true,false,false,10:30
146,"Vauxhall Bridge , Pimlico",51.48836528,-0.129361842,22,13,true,false,false,10:30
147,"Portugal Street, Holborn",51.51494305,-0.11614642,10,5,true,false,false,10:30
148,"Tachbrook Street, Victoria",51.49211134,-0.138364847,0,16,true,false,false,10:30
149,"Kennington Road Post Office, Oval",51.48478899,-0.110683213,4,13,true,false,false,10:30
150,"Holy Trinity Brompton, Knightsbridge",51.49705603,-0.168917077,10,18,true,false,false,10:30
151,"Chepstow Villas, Notting Hill",51.51213691,-0.201554966,0,26,true,false,false,10:30
171,"Collingham Gardens, Earl's Court",51.4916156,-0.186753859,3,10,true,false,false,10:30
170,"Hardwick Street, Clerkenwell",51.52784273,-0.108068155,22,8,true,false,false,10:30
169,"Porchester Place, Paddington",51.51474612,-0.165164288,1,16,true,false,false,10:30
168,"Argyll Road, Kensington",51.50040123,-0.195455928,14,5,true,false,false,10:30
175,"Appold Street, Liverpool Street",51.52174384,-0.0811189,19,5,true,false,false,10:30
174,"Strand, Strand",51.512529,-0.115163,19,17,true,false,false,10:30
173,"Waterloo Roundabout, Waterloo",51.50486,-0.113001,3,11,true,false,false,10:30
172,"Sumner Place, South Kensington",51.49121192,-0.173715911,18,0,true,false,false,10:30
163,"Sloane Avenue, Knightsbridge",51.4931848,-0.167894973,29,0,true,false,false,10:30
162,"Southampton Place, Holborn",51.51760685,-0.121328408,7,12,true,false,false,10:30
161,"Guildhouse Street, Victoria",51.49234577,-0.141334487,2,14,true,false,false,10:30
160,"Waterloo Place, St. James's",51.50663341,-0.131773845,19,0,true,false,false,10:30
166,"Seville Street, Knightsbridge",51.50185512,-0.159237081,10,17,true,false,false,10:30
165,"Orsett Terrace, Bayswater",51.517932,-0.183716959,1,14,true,false,false,10:30
164,"Cleveland Gardens, Bayswater",51.515607,-0.183118788,11,5,true,false,false,10:30
186,"South Wharf Road, Paddington",51.51733558,-0.175810943,2,13,true,false,false,10:30
187,"Queen's Gate (South), South Kensington",51.49247977,-0.178433004,18,7,true,false,false,10:30
184,"Portland Place, Marylebone",51.52071513,-0.14521173,16,18,true,false,false,10:30
185,"Alderney Street, Pimlico",51.48805753,-0.140741432,2,12,true,false,false,10:30
190,"Rampayne Street, Pimlico",51.48997562,-0.132845681,2,19,true,false,false,10:30
191,"Hyde Park Corner, Hyde Park",51.50311799,-0.153520935,8,15,true,false,false,10:30
188,"Nutford Place, Marylebone",51.5165179,-0.164393768,0,16,true,false,false,10:30
189,"Claremont Square, Angel",51.53166681,-0.109914711,0,18,true,false,false,10:30
178,"Warwick Square, Pimlico",51.48985626,-0.141923621,6,12,true,false,false,10:30
176,"Gloucester Terrace, Bayswater",51.51791921,-0.188098863,0,23,true,false,false,10:30
177,"Ashley Place, Victoria",51.49616092,-0.140947636,15,10,true,false,false,10:30
182,"Bell Street , Marylebone",51.52202903,-0.165842551,14,2,true,false,false,10:30
180,"North Audley Street, Mayfair",51.5129118,-0.153645496,10,7,true,false,false,10:30
181,"Belgrave Square, Belgravia",51.49941247,-0.152317537,21,0,true,false,false,10:30
205,"New Road  2, Whitechapel",51.518144,-0.06275,7,10,true,false,false,10:30
204,"Margery Street, Clerkenwell",51.52659961,-0.112432615,3,15,true,false,false,10:30
207,"Grosvenor Crescent, Belgravia",51.50135267,-0.153194766,9,7,true,false,false,10:30
206,"New Road 1 , Whitechapel",51.518154,-0.062697,7,11,true,false,false,10:30
201,"Dorset Square, Marylebone",51.5225965,-0.161113413,15,1,true,false,false,10:30
200,"LMU Commercial Road, Whitechapel",51.51492456,-0.066078037,1,12,true,false,false,10:30
203,"West Smithfield Rotunda, Farringdon",51.51821864,-0.100791005,9,6,true,false,false,10:30
202,"Leman Street, Aldgate",51.51236389,-0.06954201,26,11,true,false,false,10:30
197,"Stamford Street, South Bank",51.50556905,-0.111606696,3,24,true,false,false,10:30
196,"Union Street, The Borough",51.50368837,-0.098497684,6,10,true,false,false,10:30
199,"Great Tower Street, Monument",51.51048489,-0.082989638,11,10,true,false,false,10:30
193,"Bankside Mix, Bankside",51.50581776,-0.100186337,60,0,true,false,false,10:30
192,"Wardour Street, Soho",51.51251523,-0.133201961,9,7,true,false,false,10:30
195,"Milroy Walk, South Bank",51.50724437,-0.106237501,19,11,true,false,false,10:30
194,"Hop Exchange, The Borough",51.50462759,-0.091773776,5,50,true,false,false,10:30
220,"Chelsea Green, Chelsea",51.49066456,-0.166485083,16,11,true,false,false,10:30
221,"Horseferry Road, Westminster",51.49481649,-0.13045856,16,0,true,false,false,10:30
222,"Knightsbridge, Hyde Park",51.50275704,-0.155349725,12,31,true,false,false,10:30
223,"Rodney Road , Walworth",51.49148474,-0.090220911,3,21,true,false,false,10:30
216,"Old Brompton Road, South Kensington",51.49094565,-0.181190899,10,19,true,false,false,10:30
217,"Wormwood Street, Liverpool Street",51.51615461,-0.082422399,2,11,true,false,false,10:30
218,"St. Luke's Church, Chelsea",51.48971651,-0.170194408,14,6,true,false,false,10:30
219,"Bramham Gardens, Earl's Court",51.49016361,-0.19039362,14,13,true,false,false,10:30
212,"Campden Hill Road, Notting Hill",51.50658458,-0.199004026,3,14,true,false,false,10:30
213,"Wellington Arch, Hyde Park",51.50274025,-0.149569201,15,17,true,false,false,10:30
214,"Endsleigh Gardens, Euston",51.52683806,-0.130504336,0,32,true,false,false,10:30
215,"Moorfields, Moorgate",51.51906932,-0.088285377,38,16,true,false,false,10:30
208,"Mallory Street, Marylebone",51.52505151,-0.166304359,11,8,true,false,false,10:30
209,"Denyer Street, Knightsbridge",51.49358391,-0.165101392,22,8,true,false,false,10:30
210,"Hinde Street, Marylebone",51.51681444,-0.151926305,19,2,true,false,false,10:30
211,"Cadogan Place, Knightsbridge",51.49464523,-0.158105512,31,3,true,false,false,10:30
239,"Warren Street Station, Euston",51.52443845,-0.138019439,20,5,true,false,false,10:30
238,"Frampton Street, Paddington",51.5233534,-0.175116099,15,15,true,false,false,10:30
237,"Vaughan Way, Wapping",51.5084448,-0.067176443,23,26,true,false,false,10:30
236,"Fashion Street, Whitechapel",51.51838043,-0.073438925,10,19,true,false,false,10:30
235,"Kennington Road  , Vauxhall",51.49571828,-0.110889274,5,31,true,false,false,10:30
234,"Liverpool Road (N1 Centre), Angel",51.53450449,-0.106992706,11,13,true,false,false,10:30
233,"Pall Mall East, West End",51.50777049,-0.130699733,22,0,true,false,false,10:30
232,"Carey Street, Holborn",51.51501025,-0.112753217,16,0,true,false,false,10:30
231,"Queen's Gate (Central), South Kensington",51.49396755,-0.17873226,0,31,true,false,false,10:30
230,"Poured Lines, Bankside",51.50669284,-0.103137426,16,15,true,false,false,10:30
229,"Whitehall Place, Strand",51.50654321,-0.123179697,7,17,true,false,false,10:30
228,"St. James's Square, St. James's",51.50742485,-0.134621209,40,0,true,false,false,10:30
227,"Great Percy Street, Clerkenwell",51.52891573,-0.115480888,1,22,true,false,false,10:30
226,"Charles II Street, West End",51.50844614,-0.131961389,17,7,true,false,false,10:30
225,"Notting Hill Gate Station, Notting Hill",51.50935342,-0.196422,9,20,true,false,false,10:30
224,"Whiteley's, Bayswater",51.51476963,-0.188129731,9,7,true,false,false,10:30
254,"Chadwell Street, Angel",51.53051587,-0.106408455,2,16,true,false,false,10:30
255,"Clifton Road, Maida Vale",51.52557531,-0.179592915,0,22,true,false,false,10:30
252,"Jubilee Gardens, South Bank",51.5046364,-0.116542278,13,17,true,false,false,10:30
253,"Shoreditch Park, Hoxton",51.53404294,-0.086379717,3,26,true,false,false,10:30
250,"Royal Avenue 1, Chelsea",51.489932,-0.162727,5,5,true,false,false,10:30
251,"Brushfield Street, Liverpool Street",51.518908,-0.079249,25,5,true,false,false,10:30
248,"Triangle Car Park, Hyde Park",51.50645179,-0.170279555,17,7,true,false,false,10:30
249,"Harper Road, Borough",51.49859784,-0.096191134,12,30,true,false,false,10:30
246,"Berry Street, Clerkenwell",51.52285301,-0.099994052,39,1,true,false,false,10:30
247,"St. John's Wood Church, Regent's Park",51.530052,-0.168314,14,36,true,false,false,10:30
244,"Earnshaw Street , Covent Garden",51.51611887,-0.128585022,18,0,true,false,false,10:30
245,"Grosvenor Road, Pimlico",51.4853572,-0.142207481,9,19,true,false,false,10:30
242,"Beaumont Street, Marylebone",51.52200801,-0.151359288,4,17,true,false,false,10:30
243,"Gloucester Street, Pimlico",51.49096258,-0.139625122,2,23,true,false,false,10:30
240,"Colombo Street, Southwark",51.50545935,-0.10569204,2,13,true,false,false,10:30
275,"Barbican Centre, Barbican",51.52004497,-0.092176447,16,3,true,false,false,10:30
274,"Warwick Road, Olympia",51.49671237,-0.20528437,22,13,true,false,false,10:30
273,"Belvedere Road, South Bank",51.50613324,-0.114686385,7,31,true,false,false,10:30
272,"Baylis Road, Waterloo",51.50144456,-0.110699309,5,17,true,false,false,10:30
279,"North Wharf Road, Paddington",51.51862243,-0.176645823,0,25,true,false,false,10:30
278,"Tooley Street, Bermondsey",51.5034938,-0.07962099,6,8,true,false,false,10:30
277,"Kensington Church Street, Kensington",51.50315739,-0.191496313,6,11,true,false,false,10:30
276,"Lower Thames Street, Monument",51.50930161,-0.084985356,15,8,true,false,false,10:30
283,"Kingsway, Covent Garden",51.51440928,-0.118478757,13,3,true,false,false,10:30
282,"Royal London Hospital, Whitechapel",51.51906446,-0.059642081,17,24,true,false,false,10:30
281,"Smith Square, Westminster",51.49580589,-0.127575233,17,0,true,false,false,10:30
280,"Royal Avenue 2, Chelsea",51.490083,-0.162418,3,7,true,false,false,10:30
287,"Bedford Way, Bloomsbury",51.52367314,-0.128377673,2,21,true,false,false,10:30
286,"St. John's Wood Road, St. John's Wood",51.5272947,-0.174653609,7,28,true,false,false,10:30
284,"Lambeth North Station, Waterloo",51.49914063,-0.112031483,2,16,true,false,false,10:30
259,"Embankment (Horse Guards), Westminster",51.50494561,-0.123247648,11,17,true,false,false,10:30
256,"Houghton Street, Strand",51.51362054,-0.116764211,8,7,true,false,false,10:30
257,"Westminster University, Marylebone",51.52248185,-0.154907218,2,12,true,false,false,10:30
262,"LSBU (Borough Road), Elephant & Castle",51.49874469,-0.103132904,12,23,true,false,false,10:30
263,"St. Mary Axe, Aldgate",51.51422502,-0.080660083,19,0,true,false,false,10:30
260,"Broadwick Street, Soho",51.5136846,-0.135580879,18,0,true,false,false,10:30
261,"Princes Square, Bayswater",51.5134891,-0.191351186,9,6,true,false,false,10:30
266,"Queen's Gate (North), Kensington",51.50102668,-0.180246101,18,0,true,false,false,10:30
267,"Regency Street, Westminster",51.49206037,-0.132224622,17,2,true,false,false,10:30
264,"Tysoe Street, Clerkenwell",51.52644342,-0.109256828,17,2,true,false,false,10:30
265,"Southwick Street, Paddington",51.51595344,-0.169249375,0,14,true,false,false,10:30
270,"Kennington Lane Rail Bridge, Vauxhall",51.4863434,-0.122492418,6,30,true,false,false,10:30
271,"London Zoo, Regents Park",51.53583617,-0.156285395,0,29,true,false,false,10:30
268,"Belgrave Road, Victoria",51.49320445,-0.144132875,6,23,true,false,false,10:30
269,"Empire Square, The Borough",51.50082346,-0.089740764,29,17,true,false,false,10:30
305,"Kennington Lane Tesco, Vauxhall",51.48677988,-0.115853961,10,5,true,false,false,10:30
304,"Cumberland Gate, Hyde Park",51.51211869,-0.16209757,5,12,true,false,false,10:30
307,"Black Lion Gate, Kensington Gardens",51.50990837,-0.187842717,11,13,true,false,false,10:30
306,"Rathbone Street, Fitzrovia",51.51816295,-0.135025698,15,0,true,false,false,10:30
309,"Embankment (Savoy), Strand",51.50963123,-0.119047563,36,5,true,false,false,10:30
308,"Long Lane , Bermondsey",51.49907558,-0.085666316,5,15,true,false,false,10:30
311,"Foley Street, Fitzrovia",51.51918144,-0.140485596,18,6,true,false,false,10:30
310,"Black Prince Road, Vauxhall",51.4908679,-0.116911864,3,16,true,false,false,10:30
313,"Wells Street, Fitzrovia",51.51734403,-0.138072691,37,1,true,false,false,10:30
312,"Grove End Road, St. John's Wood",51.53088935,-0.176770502,15,4,true,false,false,10:30
315,"The Tennis Courts, Regent's Park",51.52536703,-0.153463612,4,11,true,false,false,10:30
314,"Tyers Gate, Bermondsey",51.50088934,-0.083159352,24,12,true,false,false,10:30
317,"Dickens Square, Borough",51.49679128,-0.093913472,23,9,true,false,false,10:30
316,"Cardinal Place, Victoria",51.49768448,-0.141943703,21,0,true,false,false,10:30
319,"Baldwin Street, St. Luke's",51.52702563,-0.088542771,8,13,true,false,false,10:30
318,"Sackville Street, Mayfair",51.51004801,-0.138846453,17,1,true,false,false,10:30
288,"Elizabeth Bridge, Victoria",51.49236962,-0.147478734,27,6,true,false,false,10:30
289,"South Audley Street, Mayfair",51.50923022,-0.151296092,14,1,true,false,false,10:30
290,"Winsland Street, Paddington",51.51678023,-0.175488803,1,14,true,false,false,10:30
291,"Claverton Street, Pimlico",51.48483991,-0.138089062,9,23,true,false,false,10:30
292,"Montpelier Street, Knightsbridge",51.49888404,-0.165471605,10,6,true,false,false,10:30
293,"Kensington Olympia Station, Olympia",51.49815779,-0.209494128,1,24,true,false,false,10:30
294,"St. George's Square, Pimlico",51.488226,-0.135635511,2,12,true,false,false,10:30
295,"Swan Street, The Borough",51.50029631,-0.092762704,5,22,true,false,false,10:30
296,"Knaresborough Place, Earl's Court",51.49363156,-0.190603326,5,13,true,false,false,10:30
297,"Geraldine Street, Elephant & Castle",51.49612799,-0.106000855,8,9,true,false,false,10:30
298,"Curlew Street, Shad Thames",51.50227992,-0.074189225,1,18,true,false,false,10:30
299,"Vincent Square, Westminster",51.49398524,-0.136928582,6,13,true,false,false,10:30
300,"Serpentine Car Park, Hyde Park",51.50501351,-0.172729559,11,5,true,false,false,10:30
301,"Marylebone Lane, Marylebone",51.51475963,-0.148105415,13,9,true,false,false,10:30
303,"Albert Gate, Hyde Park",51.50295379,-0.158456089,23,3,true,false,false,10:30
343,"London Zoo Car Park, Regent's Park",51.53692216,-0.150181444,0,36,true,false,false,10:30
341,"Craven Street, Strand",51.50810309,-0.12602103,13,7,true,false,false,10:30
340,"Bank of England Museum, Bank",51.51444134,-0.087587447,12,3,true,false,false,10:30
339,"Risinghill Street, Angel",51.5333196,-0.111781191,0,25,true,false,false,10:30
338,"Wellington Street , Strand",51.51175646,-0.119643424,13,0,true,false,false,10:30
337,"Pembridge Villas, Notting Hill",51.51108452,-0.197524944,1,15,true,false,false,10:30
336,"Concert Hall Approach 2, South Bank",51.504942,-0.115533,2,16,true,false,false,10:30
351,"Macclesfield Rd, St Lukes",51.529423,-0.097122,0,27,true,false,false,10:30
350,"Queen's Gate, Kensington Gardens",51.5017154373867,-0.1798541843891,17,2,true,false,false,10:30
349,"St. George Street, Mayfair",51.51196,-0.142783033,16,2,true,false,false,10:30
348,"Grosvenor Square, Mayfair",51.51217033,-0.150481272,17,0,true,false,false,10:30
347,"Lower Marsh, Waterloo",51.50013942,-0.113936001,5,12,true,false,false,10:30
345,"Flood Street, Chelsea",51.48802358,-0.166878535,10,7,true,false,false,10:30
344,"Goswell Road (City Uni), Finsbury",51.528246,-0.10102611,6,11,true,false,false,10:30
326,"Graham Street, Angel",51.53266186,-0.099981142,1,24,true,false,false,10:30
327,"New North Road 1, Hoxton",51.53114,-0.086016,9,13,true,false,false,10:30
324,"Ontario Street, Elephant & Castle",51.49652013,-0.101384068,1,14,true,false,false,10:30
325,"St. Martin's Street, West End",51.50908747,-0.129697889,15,3,true,false,false,10:30
322,"Palissy Street, Shoreditch",51.526293,-0.073955,4,22,true,false,false,10:30
323,"Clifton Street, Shoreditch",51.523196,-0.083067,20,3,true,false,false,10:30
320,"Queen Mother Sports Centre, Victoria",51.49357351,-0.139956043,11,13,true,false,false,10:30
321,"Bermondsey Street, Bermondsey",51.49785559,-0.081608045,11,13,true,false,false,10:30
334,"Concert Hall Approach 1, South Bank",51.505044,-0.115851,0,10,true,false,false,10:30
335,"Tavistock Street, Covent Garden",51.51196803,-0.120718759,11,21,true,false,false,10:30
332,"Nevern Place, Earl's Court",51.49334336,-0.194757949,7,13,true,false,false,10:30
333,"Palace Gardens Terrace, Notting Hill",51.50860544,-0.193764092,1,35,true,false,false,10:30
330,"Eastbourne Mews, Paddington",51.51641749,-0.179135079,0,34,true,false,false,10:30
331,"Bunhill Row, Moorgate",51.52085887,-0.089887855,30,0,true,false,false,10:30
328,"New North Road 2, Hoxton",51.53095,-0.085603,7,15,true,false,false,10:30
329,"Prince Albert Road, Regent's Park",51.53589283,-0.160854428,0,24,true,false,false,10:30
373,"Prince Consort Road, Knightsbridge",51.49980661,-0.176415994,17,1,true,false,false,10:30
372,"Sardinia Street, Holborn",51.515208,-0.117863,22,2,true,false,false,10:30
375,"Kensington Town Hall, Kensington",51.50194596,-0.194392952,10,8,true,false,false,10:30
374,"Waterloo Station 1, Waterloo",51.50402793,-0.11386435,10,23,true,false,false,10:30
368,"Harriet Street, Knightsbridge",51.50024195,-0.15934065,18,6,true,false,false,10:30
371,"King Edward Walk, Waterloo",51.49775,-0.10988,8,14,true,false,false,10:30
370,"Paddington Green, Paddington",51.520205,-0.174593,1,19,true,false,false,10:30
381,"Charlotte Street, Fitzrovia",51.51953043,-0.13577731,13,0,true,false,false,10:30
380,"Stanhope Gate, Mayfair",51.50686435,-0.150666888,9,12,true,false,false,10:30
383,"Frith Street, Soho",51.51310333,-0.13121385,15,3,true,false,false,10:30
382,"Farm Street, Mayfair",51.50935171,-0.14744969,8,7,true,false,false,10:30
377,"Waterloo Bridge, South Bank",51.50535447,-0.113656543,5,10,true,false,false,10:30
376,"Millbank House, Pimlico",51.49188409,-0.125674815,24,0,true,false,false,10:30
379,"Turquoise Island, Notting Hill",51.51431171,-0.200838199,1,19,true,false,false,10:30
378,"Natural History Museum, South Kensington",51.49559291,-0.179077626,15,26,true,false,false,10:30
356,"South Kensington Station, South Kensington",51.494412,-0.173881,12,1,true,false,false,10:30
357,"Howland Street, Fitzrovia",51.520994,-0.139016,30,0,true,false,false,10:30
358,"High Holborn , Covent Garden",51.51643491,-0.124332175,11,5,true,false,false,10:30
359,"Butler Place, Westminster",51.49782999,-0.135440826,18,0,true,false,false,10:30
352,"Vauxhall Street, Vauxhall",51.486965,-0.116625,10,9,true,false,false,10:30
353,"Greycoat Street , Westminster",51.49459148,-0.134234258,17,0,true,false,false,10:30
354,"Northumberland Avenue, Strand",51.506767,-0.123702,5,31,true,false,false,10:30
355,"Oval Way, Lambeth",51.486575,-0.117286,17,4,true,false,false,10:30
364,"Alfred Place, Bloomsbury",51.519656,-0.132339,25,15,true,false,false,10:30
365,"City Road, Angel",51.530344,-0.100168,2,43,true,false,false,10:30
366,"Millennium Hotel, Mayfair",51.5109192966489,-0.1511263847351,16,11,true,false,false,10:30
367,"Harrowby Street, Marylebone",51.5173721,-0.1642075,1,14,true,false,false,10:30
360,"Howick Place, Westminster",51.49675303,-0.138733562,24,2,true,false,false,10:30
361,"Waterloo Station 2, Waterloo",51.50391972,-0.11342628,8,42,true,false,false,10:30
362,"Royal College Street, Camden Town",51.536264,-0.133952,16,41,true,false,false,10:30
363,"Lord's, St. John's Wood",51.5291212008901,-0.171185284853,4,20,true,false,false,10:30
410,"Edgware Road Station, Paddington",51.519968,-0.169774,38,25,true,false,false,10:30
411,"Walworth Road, Southwark",51.49337264,-0.09968067,17,10,true,false,false,10:30
408,"Paddington Green Police Station, Paddington",51.51994326,-0.170704337,0,39,true,false,false,10:30
409,"Strata, Southwark",51.493146,-0.099828,1,20,true,false,false,10:30
412,"Cleaver Street, Kennington",51.488105,-0.110121,5,12,true,false,false,10:30
402,"Penfold Street, Marylebone",51.52289229,-0.171681991,3,11,true,false,false,10:30
403,"George Place Mews, Marylebone",51.51689296,-0.158249929,2,14,true,false,false,10:30
400,"George Street, Marylebone",51.517703,-0.154106,12,14,true,false,false,10:30
401,"Columbia Road, Weavers",51.528187,-0.075375,2,21,true,false,false,10:30
406,"Speakers' Corner 2, Hyde Park",51.512303,-0.159988,10,13,true,false,false,10:30
407,"Speakers' Corner 1, Hyde Park",51.51222,-0.160785,5,12,true,false,false,10:30
404,"Palace Gate, Kensington Gardens",51.50204238,-0.184400221,3,12,true,false,false,10:30
405,"Gloucester Road Station, South Kensington",51.49418566,-0.18267094,11,3,true,false,false,10:30
395,"Cadogan Gardens, Sloane Square",51.492462,-0.159919,15,0,true,false,false,10:30
394,"Aberdeen Place, St. John's Wood",51.524826,-0.176268,1,17,true,false,false,10:30
393,"Snow Hill, Farringdon",51.51733427,-0.103604248,15,0,true,false,false,10:30
392,"Imperial College, Knightsbridge",51.49942855,-0.179702476,20,0,true,false,false,10:30
399,"Brick Lane Market, Shoreditch",51.52261762,-0.071653961,2,22,true,false,false,10:30
398,"Holland Park, Kensington",51.502319,-0.200742,3,26,true,false,false,10:30
397,"Devonshire Terrace, Bayswater",51.51348,-0.17977,0,16,true,false,false,10:30
396,"Shouldham Street, Marylebone",51.51809,-0.163609,1,15,true,false,false,10:30
387,"Fire Brigade Pier, Vauxhall",51.49369988,-0.121394101,17,12,true,false,false,10:30
386,"Moor Street, Soho",51.51352755,-0.130110822,12,2,true,false,false,10:30
384,"Marloes Road, Kensington",51.496481,-0.192404,1,14,true,false,false,10:30
391,"Clifford Street, Mayfair",51.51066202,-0.142345694,27,0,true,false,false,10:30
390,"Buxton Street 1, Bangla Town",51.521776,-0.068856,1,40,true,false,false,10:30
389,"Upper Grosvenor Street, Mayfair",51.51013066,-0.155757901,7,11,true,false,false,10:30
388,"Southampton Street, Strand",51.51070161,-0.121723604,5,9,true,false,false,10:30
440,"Kennington Oval, Oval",51.483145,-0.113134,15,18,true,false,false,10:30
441,"Sail Street, Vauxhall",51.495656,-0.114605,10,12,true,false,false,10:30
442,"Walmer Road, Notting Hill",51.510101,-0.211358,3,21,true,false,false,10:30
443,"Philpot Street, Whitechapel",51.515256,-0.058641,8,22,true,false,false,10:30
444,"Bethnal Green Gardens, Bethnal Green",51.52568,-0.055312,2,21,true,false,false,10:30
445,"Cheshire Street, Bethnal Green",51.52388,-0.065076,0,25,true,false,false,10:30
446,"York Hall, Bethnal Green",51.528936,-0.055894,18,8,true,false,false,10:30
447,"Jubilee Crescent, Cubitt Town",51.493381,-0.007542,26,28,true,false,false,10:30
432,"Exhibition Road Museums, Knightsbridge",51.496957,-0.173894,18,4,true,false,false,10:30
433,"Wren Street, Holborn",51.524564,-0.116279,2,31,true,false,false,10:30
435,"Kennington Station, Kennington",51.488852,-0.105593,2,21,true,false,false,10:30
436,"Red Lion Street, Holborn",51.51824,-0.11655,36,0,true,false,false,10:30
437,"Vauxhall Walk, Vauxhall",51.488124,-0.120903,20,7,true,false,false,10:30
439,"Killick Street, Kings Cross",51.5338,-0.118677,4,18,true,false,false,10:30
425,"Harrington Square 2, Camden Town",51.533379,-0.139159,3,35,true,false,false,10:30
424,"Ebury Bridge, Pimlico",51.490491,-0.149186,1,28,true,false,false,10:30
427,"Cheapside, Bank",51.51397065,-0.09294031,25,14,true,false,false,10:30
426,"Vincent Street, Pimlico",51.493072,-0.129925,16,1,true,false,false,10:30
428,"Exhibition Road, South Kensington",51.499917,-0.174554,18,1,true,false,false,10:30
431,"Crinan Street, King's Cross",51.534474,-0.122203,4,15,true,false,false,10:30
430,"South Parade, Chelsea",51.48902,-0.17524,11,7,true,false,false,10:30
419,"Chelsea Bridge, Pimlico",51.485821,-0.149004,2,12,true,false,false,10:30
421,"Southwark Station 2, Southwark",51.504044,-0.104778,9,35,true,false,false,10:30
420,"Southwark Station 1, Southwark",51.504043,-0.105312,26,9,true,false,false,10:30
423,"Eaton Square (South), Belgravia",51.49456127,-0.15393398,14,15,true,false,false,10:30
478,"Stepney Green Station, Stepney",51.521889,-0.04667,13,5,true,false,false,10:30
479,"Pott Street, Bethnal Green",51.527152,-0.058005,0,20,true,false,false,10:30
476,"Stebondale Street, Cubitt Town",51.489096,-0.009205,25,4,true,false,false,10:30
477,"Spindrift Avenue, Millwall",51.49109,-0.018716,27,9,true,false,false,10:30
474,"Castalia Square, Cubitt Town",51.498125,-0.011457,26,13,true,false,false,10:30
475,"Lightermans Road, Millwall",51.499041,-0.020157,29,27,true,false,false,10:30
472,"Malmesbury Road, Bow",51.529452,-0.027616,6,14,true,false,false,10:30
473,"Millharbour, Millwall",51.496137,-0.019355,12,7,true,false,false,10:30
470,"Mostyn Grove, Bow",51.530535,-0.025492,4,41,true,false,false,10:30
471,"Hewison Street, Old Ford",51.533283,-0.028155,0,19,true,false,false,10:30
468,"Cantrell Road, Bow",51.521564,-0.022694,14,10,true,false,false,10:30
469,"Lindfield Street, Poplar",51.513757,-0.020467,19,23,true,false,false,10:30
466,"Whiston Road, Haggerston",51.534464,-0.076341,0,21,true,false,false,10:30
467,"Southern Grove, Bow",51.523538,-0.030556,3,14,true,false,false,10:30
464,"St. Mary and St. Michael Church, Stepney",51.51417,-0.052099,15,10,true,false,false,10:30
465,"Pitfield Street (North),Hoxton",51.53558,-0.08249,0,26,true,false,false,10:30
463,"Thurtle Road, Haggerston",51.534776,-0.071881,0,22,true,false,false,10:30
462,"Bonny Street, Camden Town",51.541603,-0.138853,1,44,true,false,false,10:30
461,"Aston Street, Stepney",51.516,-0.038775,11,15,true,false,false,10:30
460,"Burdett Road, Mile End",51.516196,-0.029138,24,8,true,false,false,10:30
459,"Gun Makers Lane, Old Ford",51.535179,-0.03338,8,9,true,false,false,10:30
458,"Wapping Lane, Wapping",51.504749,-0.057544,6,21,true,false,false,10:30
457,"Castlehaven Road, Camden Town",51.542138,-0.145393,0,29,true,false,false,10:30
456,"Parkway, Camden Town",51.538071,-0.144664,2,30,true,false,false,10:30
455,"East Ferry Road, Cubitt Town",51.49447,-0.014409,11,6,true,false,false,10:30
454,"Napier Avenue, Millwall",51.487679,-0.021582,0,20,true,false,false,10:30
453,"Garnet Street, Shadwell",51.508447,-0.055167,9,15,true,false,false,10:30
452,"St Katharines Way, Tower",51.505697,-0.070542,24,0,true,false,false,10:30
451,"Hermitage Court, Wapping",51.504719,-0.063531,4,12,true,false,false,10:30
450,"Jubilee Street, Stepney",51.515975,-0.053177,19,9,true,false,false,10:30
449,"Shadwell Station, Shadwell",51.511088,-0.057159,11,22,true,false,false,10:30
448,"Fishermans Walk West, Canary Wharf",51.50623,-0.02296,21,15,true,false,false,10:30
508,"Fournier Street, Whitechapel",51.519362,-0.074431,18,0,true,false,false,10:30
509,"Fore Street, Guildhall",51.517842,-0.090075,18,0,true,false,false,10:30
510,"Westferry DLR, Limehouse",51.509303,-0.025996,32,6,true,false,false,10:30
511,"Sutton Street, Shadwell",51.511066,-0.053558,9,24,true,false,false,10:30
504,"St John's Park, Cubitt Town",51.496454,-0.009506,25,5,true,false,false,10:30
505,"Ackroyd Drive, Bow",51.520398,-0.026768,20,7,true,false,false,10:30
506,"Bell Lane, Liverpool Street",51.517475,-0.075855,10,11,true,false,false,10:30
507,"Clarkson Street, Bethnal Green",51.528692,-0.059091,19,12,true,false,false,10:30
500,"Sidney Street, Stepney",51.519806,-0.055731,10,32,true,false,false,10:30
501,"Cephas Street, Bethnal Green",51.522561,-0.054883,7,17,true,false,false,10:30
502,"South Quay West, Canary Wharf",51.502635,-0.022702,26,34,true,false,false,10:30
503,"Cleveland Way, Bethnal Green",51.520893,-0.051394,27,8,true,false,false,10:30
496,"Devons Road, Bow",51.52512,-0.015578,12,25,true,false,false,10:30
497,"Coborn Street, Mile End",51.526535,-0.028619,27,0,true,false,false,10:30
498,"Bow Road Station, Bow",51.527058,-0.025296,22,20,true,false,false,10:30
499,"Furze Green, Bow",51.519265,-0.021345,11,24,true,false,false,10:30
492,"The Green Bridge, Mile End",51.524677,-0.03562,16,45,true,false,false,10:30
495,"Bow Church Station, Bow",51.528169,-0.018703,24,12,true,false,false,10:30
494,"South Quay East, Canary Wharf",51.50196,-0.016251,18,18,true,false,false,10:30
489,"Christian Street, Whitechapel",51.513074,-0.064094,2,32,true,false,false,10:30
488,"Reardon Street, Wapping",51.506946,-0.058681,0,22,true,false,false,10:30
491,"Queen Marys, Mile End",51.522507,-0.041378,25,18,true,false,false,10:30
490,"Pennington Street, Wapping",51.508622,-0.065006,25,20,true,false,false,10:30
485,"Old Ford Road, Bethnal Green",51.531127,-0.048017,14,9,true,false,false,10:30
484,"Bromley High Street, Bromley",51.528828,-0.013258,9,15,true,false,false,10:30
487,"Canton Street, Poplar",51.511811,-0.025626,10,13,true,false,false,10:30
486,"Granby Street, Shoreditch",51.525645,-0.069543,1,36,true,false,false,10:30
481,"Saunders Ness Road, Cubitt Town",51.487129,-0.009001,29,5,true,false,false,10:30
480,"Flamborough Street, Limehouse",51.5128711,-0.0389866,10,14,true,false,false,10:30
483,"Albert Gardens, Stepney",51.51328,-0.047784,2,31,true,false,false,10:30
482,"Thornfield House, Poplar",51.509843,-0.02377,16,10,true,false,false,10:30
550,"Harford Street, Mile End",51.521564,-0.039264,16,6,true,false,false,10:30
551,"Montgomery Square, Canary Wharf",51.503447,-0.016233,38,1,true,false,false,10:30
548,"Westminster Bridge Road, Elephant & Castle",51.498386,-0.107913,9,16,true,false,false,10:30
549,"Gaywood  Street, Elephant & Castle",51.49605,-0.104193,27,17,true,false,false,10:30
546,"New Fetter Lane, Holborn",51.517428,-0.107987,13,7,true,false,false,10:30
547,"East India DLR, Blackwall",51.509474,-0.002275,32,18,true,false,false,10:30
544,"Percival Street, Finsbury",51.526153,-0.102208,19,1,true,false,false,10:30
545,"Arlington Road, Camden Town",51.539957,-0.145246,11,12,true,false,false,10:30
558,"Page Street, Westminster",51.493978,-0.127554,23,0,true,false,false,10:30
559,"Abbotsbury Road, Holland Park",51.501391,-0.205991,13,11,true,false,false,10:30
556,"Heron Quays DLR, Canary Wharf",51.502661,-0.021596,21,6,true,false,false,10:30
557,"King Edward Street, St Pauls",51.51601,-0.0985,18,1,true,false,false,10:30
554,"Aberfeldy Street, Poplar",51.513548,-0.005659,14,2,true,false,false,10:30
555,"Westfield Eastern Access Road, Shepherd's Bush",51.509424,-0.219712,32,23,true,false,false,10:30
552,"Watney Street, Shadwell",51.511542,-0.056667,3,24,true,false,false,10:30
553,"Regent's Row , Haggerston",51.535678,-0.062546,4,14,true,false,false,10:30
566,"Westfield Ariel Way, White City",51.509158,-0.224103,38,4,true,false,false,10:30
565,"Selby Street, Whitechapel",51.521905,-0.063386,0,17,true,false,false,10:30
564,"Somerset House, Strand",51.509943,-0.117619,18,23,true,false,false,10:30
563,"Preston's Road, Cubitt Town",51.499286,-0.009152,19,6,true,false,false,10:30
562,"Bury Place, Holborn",51.51746,-0.12335,18,3,true,false,false,10:30
561,"Rectory Square, Stepney",51.518369,-0.043371,5,14,true,false,false,10:30
560,"Ladbroke Grove Central, Notting Hill",51.511624,-0.205921,0,21,true,false,false,10:30
574,"Eagle Wharf Road, Hoxton",51.53356,-0.09315,0,45,true,false,false,10:30
573,"Limerston Street, Chelsea",51.485587,-0.18119,12,6,true,false,false,10:30
572,"Greenland Road, Camden Town",51.539099,-0.141728,1,35,true,false,false,10:30
571,"Westfield Southern Terrace ,Shepherd's Bush",51.506256,-0.218337,17,12,true,false,false,10:30
570,"Upper Bank Street, Canary Wharf",51.503083,-0.017676,28,8,true,false,false,10:30
569,"Pitfield Street Central, Hoxton",51.53213,-0.08299,1,21,true,false,false,10:30
568,"Bishop's Bridge Road West, Bayswater",51.51616,-0.18697,0,18,true,false,false,10:30
516,"Chrisp Street Market, Poplar",51.5112,-0.014438,16,2,true,false,false,10:30
517,"Ford Road, Old Ford",51.532513,-0.033085,7,11,true,false,false,10:30
518,"Antill Road, Mile End",51.528224,-0.037471,8,21,true,false,false,10:30
519,"Teviot Street, Poplar",51.518811,-0.011662,22,11,true,false,false,10:30
512,"Pritchard's Road, Bethnal Green",51.532091,-0.06142,12,17,true,false,false,10:30
513,"Watney Market, Stepney",51.5142228,-0.055656,29,21,true,false,false,10:30
514,"Portman Square, Marylebone",51.516204,-0.155525,16,1,true,false,false,10:30
515,"Russell Gardens, Holland Park",51.500088,-0.211316,8,16,true,false,false,10:30
524,"Lancaster Gate , Bayswater",51.511654,-0.179668,6,32,true,false,false,10:30
525,"Churchill Place, Canary Wharf",51.504714,-0.014293,18,0,true,false,false,10:30
526,"Lancaster Drive, Blackwall",51.503143,-0.008428,18,9,true,false,false,10:30
527,"Hansard Mews, Shepherds Bush",51.503802,-0.215808,17,2,true,false,false,10:30
520,"Bancroft Road, Bethnal Green",51.526041,-0.047218,5,16,true,false,false,10:30
521,"Driffield Road, Old Ford",51.534137,-0.037366,4,15,true,false,false,10:30
522,"Clinton Road, Mile End",51.525941,-0.036017,8,27,true,false,false,10:30
523,"Langdon Park, Poplar",51.51549,-0.013475,18,5,true,false,false,10:30
533,"Wellington Row, Bethnal Green",51.528222,-0.069743,1,31,true,false,false,10:30
532,"Jubilee Plaza, Canary Wharf",51.50357,-0.020068,61,2,true,false,false,10:30
535,"Gloucester Avenue, Camden Town",51.537349,-0.147154,0,23,true,false,false,10:30
534,"Goldsmiths Row, Haggerston",51.531864,-0.066035,5,21,true,false,false,10:30
529,"Manresa Road, Chelsea",51.486892,-0.170983,15,2,true,false,false,10:30
528,"Clarges Street, West End",51.507326,-0.145827,16,0,true,false,false,10:30
531,"Twig Folly Bridge, Mile End",51.530326,-0.042744,3,17,true,false,false,10:30
530,"Newby Place, Poplar",51.508896,-0.012413,12,6,true,false,false,10:30
541,"Green Park Station, West End",51.506613,-0.142844,22,4,true,false,false,10:30
540,"Albany Street, Regent's Park",51.528302,-0.144466,0,25,true,false,false,10:30
543,"Lansdowne Walk, Notting Hill",51.509591,-0.204666,14,7,true,false,false,10:30
542,"Salmon Lane, Limehouse",51.514115,-0.033828,19,13,true,false,false,10:30
537,"Old Montague Street, Whitechapel",51.51793,-0.067937,2,16,true,false,false,10:30
536,"Queensbridge Road, Haggerston",51.53385,-0.06992,10,25,true,false,false,10:30
539,"Hoxton Station, Haggerston",51.531091,-0.075901,5,17,true,false,false,10:30
538,"Naval Row, Blackwall",51.508981,-0.00699,20,1,true,false,false,10:30
610,"Danvers Street, West Chelsea",51.48256792,-0.172078187,19,1,true,false,false,10:30
611,"Princedale Road , Holland Park",51.50646524,-0.208486599,15,5,true,false,false,10:30
608,"Colet Gardens, Hammersmith",51.491093,-0.216493,18,12,true,false,false,10:30
609,"Sugden Road, Battersea",51.46512358,-0.157788279,14,5,true,false,false,10:30
614,"Bradmead, Nine Elms",51.47817208,-0.144690541,38,2,true,false,false,10:30
615,"Finlay Street, Fulham",51.4768851,-0.215895601,11,6,true,false,false,10:30
612,"Wandsworth Rd, Isley Court, Wandsworth Road",51.46925984,-0.141812513,24,6,true,false,false,10:30
613,"Woodstock Grove, Shepherd's Bush",51.50403821,-0.217400093,20,4,true,false,false,10:30
618,"Eel Brook Common, Walham Green",51.47625965,-0.193254007,4,19,true,false,false,10:30
619,"Irene Road, Parsons Green",51.4737636,-0.197010096,37,6,true,false,false,10:30
616,"Aintree Street, Fulham",51.48102131,-0.209973497,1,23,true,false,false,10:30
617,"Elysium Place, Fulham",51.47107905,-0.207842908,4,17,true,false,false,10:30
622,"Lansdowne Road, Ladbroke Grove",51.50748124,-0.205535908,29,0,true,false,false,10:30
623,"Nantes Close, Wandsworth",51.46193072,-0.180791784,15,6,true,false,false,10:30
620,"Surrey Lane, Battersea",51.47518024,-0.167160736,14,13,true,false,false,10:30
621,"Wandsworth Town Station, Wandsworth",51.46086446,-0.187427294,30,3,true,false,false,10:30
627,"Holden Street, Battersea",51.4687905,-0.158230901,16,4,true,false,false,10:30
626,"Normand Park, Fulham",51.48438657,-0.20481514,1,22,true,false,false,10:30
625,"Queen's Circus, Battersea Park",51.47761941,-0.149551631,16,12,true,false,false,10:30
624,"Courland Grove, Wandsworth Road",51.4729184,-0.132102704,32,7,true,false,false,10:30
631,"Battersea Park Road, Nine Elms",51.4795017,-0.141770709,14,12,true,false,false,10:30
630,"Clarence Walk, Stockwell",51.47073264,-0.126994068,19,8,true,false,false,10:30
629,"Morie Street, Wandsworth",51.45995384,-0.190184054,23,3,true,false,false,10:30
628,"William Morris Way, Sands End",51.46881971,-0.184318843,23,3,true,false,false,10:30
635,"Greyhound Road, Hammersmith",51.48606206,-0.214428378,9,26,true,false,false,10:30
634,"Brook Green South, Brook Green",51.49434708,-0.215804559,11,22,true,false,false,10:30
633,"Vereker Road, West Kensington",51.48959104,-0.209378594,8,23,true,false,false,10:30
632,"Sheepcote Lane, Battersea",51.47053858,-0.163041605,13,14,true,false,false,10:30
639,"Coomer Place, West Kensington",51.48357068,-0.202038682,20,7,true,false,false,10:30
638,"Falcon Road, Clapham Junction",51.46663393,-0.169821175,8,17,true,false,false,10:30
637,"Spencer Park, Wandsworth Common",51.45787019,-0.174691623,18,7,true,false,false,10:30
636,"South Park, Sands End",51.46706414,-0.193502076,20,8,true,false,false,10:30
576,"Alpha Grove, Millwall",51.497304,-0.022793,14,9,true,false,false,10:30
577,"Globe Town Market, Bethnal Green",51.528869,-0.047548,17,3,true,false,false,10:30
578,"Hollybush Gardens, Bethnal Green",51.527607,-0.057133,11,21,true,false,false,10:30
579,"Queen Street 2, Bank",51.511246,-0.093051,36,0,true,false,false,10:30
580,"Doddington Grove, Kennington",51.48692917,-0.102996299,7,27,true,false,false,10:30
583,"Abingdon Green, Great College Street",51.497622,-0.125978,20,0,true,false,false,10:30
584,"Ilchester Gardens, Bayswater",51.51244,-0.19096,0,21,true,false,false,10:30
586,"Mudchute DLR, Cubitt Town",51.490645,-0.014582,19,12,true,false,false,10:30
587,"Monument Street, Monument",51.50964,-0.08497,21,1,true,false,false,10:30
588,"Hoxton Street, Hoxton",51.52959,-0.0801,6,21,true,false,false,10:30
589,"Drayton Gardens, Chelsea",51.487196,-0.179369,5,13,true,false,false,10:30
590,"Greenberry Street, St.John's Wood",51.53256,-0.16862,1,25,true,false,false,10:30
591,"Westfield Library Corner, Shepherd's Bush",51.506093,-0.2242237,6,21,true,false,false,10:30
593,"Northdown Street, King's Cross",51.531066,-0.11934,0,21,true,false,false,10:30
592,"Bishop's Bridge Road East, Bayswater",51.5171,-0.18377,3,16,true,false,false,10:30
595,"Hammersmith Road, Hammersmith",51.493267,-0.21985,19,1,true,false,false,10:30
594,"Kingsway Southbound, Strand",51.513875,-0.117774,22,11,true,false,false,10:30
597,"Fulham Park Road, Fulham",51.473471,-0.20782,21,6,true,false,false,10:30
596,"Parson's Green , Parson's Green",51.472817,-0.199783,14,6,true,false,false,10:30
599,"Manbre Road, Hammersmith",51.485743,-0.223616,22,4,true,false,false,10:30
598,"Southerton Road, Hammersmith",51.494499,-0.228188,22,16,true,false,false,10:30
601,"BBC White City, White City",51.514767,-0.225787,16,19,true,false,false,10:30
600,"South Lambeth Road, Vauxhall",51.481747,-0.124642,3,18,true,false,false,10:30
603,"Caldwell Street, Stockwell",51.477839,-0.116493,22,20,true,false,false,10:30
602,"Union Grove, Wandsworth Road",51.472993,-0.133972,35,9,true,false,false,10:30
605,"Seymour Place, Marylebone",51.520331,-0.163667,17,12,true,false,false,10:30
604,"St Martin's Close, Camden Town",51.538792,-0.138535,2,16,true,false,false,10:30
607,"Putney Bridge Station, Fulham",51.468814,-0.210279,13,6,true,false,false,10:30
606,"Addison Road, Holland Park",51.504199,-0.210941,7,19,true,false,false,10:30
687,"Maclise Road, Olympia",51.49760804,-0.21145598,6,20,true,false,false,10:30
686,"Beryl Road, Hammersmith",51.48814438,-0.222456468,7,18,true,false,false,10:30
685,"Osiers Road, Wandsworth",51.46067005,-0.198735357,10,20,true,false,false,10:30
684,"Neville Gill Close, Wandsworth",51.45475251,-0.195197203,28,3,true,false,false,10:30
683,"Dorothy Road, Clapham Junction",51.46506424,-0.163750945,19,8,true,false,false,10:30
682,"Crisp Road, Hammersmith",51.48810829,-0.22660621,34,11,true,false,false,10:30
681,"Bishop's Avenue, Fulham",51.47303687,-0.214749808,21,22,true,false,false,10:30
680,"Westbridge Road, Battersea",51.47768469,-0.170329317,9,18,true,false,false,10:30
679,"Orbel Street, Battersea",51.47453545,-0.170210533,8,17,true,false,false,10:30
678,"Esmond Street, Putney",51.46231278,-0.211468596,22,7,true,false,false,10:30
677,"Heath Road, Battersea",51.46866929,-0.146544642,18,8,true,false,false,10:30
676,"Hartington Road, Stockwell",51.47787084,-0.126874471,6,27,true,false,false,10:30
675,"Usk Road, Battersea",51.46348914,-0.182126248,25,4,true,false,false,10:30
674,"Carnegie Street, King's Cross",51.53546778,-0.11619105,0,39,true,false,false,10:30
673,"Hibbert Street, Battersea",51.46517078,-0.18038939,29,5,true,false,false,10:30
672,"Grant Road Central, Clapham Junction",51.4646884,-0.173656546,15,13,true,false,false,10:30
702,"Durant Street, Bethnal Green",51.52868155,-0.065550321,0,24,true,false,false,10:30
703,"St. Bride Street, Holborn",51.51505991,-0.10534448,14,10,true,false,false,10:30
700,"Battersea Church Road, Battersea",51.47696496,-0.174347066,18,4,true,false,false,10:30
701,"Vicarage Crescent, Battersea",51.47287627,-0.176267008,11,19,true,false,false,10:30
698,"Shoreditch Court, Haggerston",51.53908372,-0.070329419,2,33,true,false,false,10:30
699,"Belford House, Haggerston",51.5366541,-0.07023031,0,38,true,false,false,10:30
696,"Charing Cross Hospital, Hammersmith",51.48728535,-0.217995921,8,13,true,false,false,10:30
697,"Charlotte Terrace, Angel",51.53639219,-0.112721065,0,24,true,false,false,10:30
694,"Putney Rail Station, Putney",51.46071722,-0.216526155,9,9,true,false,false,10:30
695,"Islington Green, Angel",51.53638435,-0.102757578,0,20,true,false,false,10:30
692,"Cadogan Close, Victoria Park",51.54211855,-0.028941601,4,17,true,false,false,10:30
693,"Felsham Road, Putney",51.464786,-0.215618902,5,12,true,false,false,10:30
690,"Stanley Grove, Battersea",51.47047503,-0.152130083,13,11,true,false,false,10:30
691,"Erin Close, Walham Green",51.47946386,-0.195777222,10,14,true,false,false,10:30
688,"Northfields, Wandsworth",51.46095151,-0.20066766,18,10,true,false,false,10:30
689,"Spanish Road, Wandsworth",51.45922541,-0.180884959,21,9,true,false,false,10:30
653,"Simpson Street, Battersea",51.47084722,-0.17070367,12,13,true,false,false,10:30
652,"Evesham Street, Avondale",51.51148696,-0.218190203,28,1,true,false,false,10:30
655,"Crabtree Lane, Fulham",51.48294452,-0.219346128,5,22,true,false,false,10:30
654,"Ashmole Estate, Oval",51.48267821,-0.117661574,21,12,true,false,false,10:30
649,"World's End Place, West Chelsea",51.48180515,-0.18027465,11,11,true,false,false,10:30
648,"Peterborough Road, Sands End",51.46904022,-0.19627483,22,7,true,false,false,10:30
651,"Thorndike Close, West Chelsea",51.48089844,-0.183853573,17,8,true,false,false,10:30
650,"St. Mark's Road, North Kensington",51.51687069,-0.213872396,11,12,true,false,false,10:30
645,"Great Suffolk Street, The Borough",51.50173215,-0.100292412,6,15,true,false,false,10:30
644,"Rainville Road, Hammersmith",51.48373225,-0.223852256,10,25,true,false,false,10:30
647,"Richmond Way, Shepherd's Bush",51.50035306,-0.217515071,8,19,true,false,false,10:30
646,"Buckingham Gate, Westminster",51.49886563,-0.137424571,13,3,true,false,false,10:30
641,"Archbishop's Park, Waterloo",51.49824168,-0.117495865,19,4,true,false,false,10:30
640,"Silverthorne Road, Battersea",51.47286577,-0.148059277,24,3,true,false,false,10:30
643,"All Saints' Road, Portobello",51.5190427,-0.204764421,9,11,true,false,false,10:30
642,"Fawcett Close, Battersea",51.46916161,-0.174485792,28,8,true,false,false,10:30
668,"Ravenscourt Park Station, Hammersmith",51.49422354,-0.236769936,18,8,true,false,false,10:30
669,"Teversham Lane, Stockwell",51.47614939,-0.1232585,38,1,true,false,false,10:30
670,"Ashley Crescent, Battersea",51.46718562,-0.152248582,14,13,true,false,false,10:30
671,"Parsons Green Station, Parsons Green",51.475089,-0.201968,33,22,true,false,false,10:30
664,"Austin Road, Battersea",51.474376,-0.155442787,6,17,true,false,false,10:30
665,"Smugglers Way, Wandsworth",51.46108367,-0.191722864,24,4,true,false,false,10:30
666,"Olympia Way, Olympia",51.49610093,-0.208158259,3,35,true,false,false,10:30
667,"Shepherd's Bush Road North, Shepherd's Bush",51.5015946,-0.222293381,9,25,true,false,false,10:30
660,"West Kensington Station, West Kensington",51.49087074,-0.206029743,6,16,true,false,false,10:30
661,"All Saints Church, Portobello",51.51632095,-0.202608612,3,32,true,false,false,10:30
662,"Phene Street, Chelsea",51.48498496,-0.167919869,4,20,true,false,false,10:30
663,"Clarendon Road, Avondale",51.51323001,-0.211593602,21,3,true,false,false,10:30
656,"Broomhouse Lane, Parsons Green",51.46841875,-0.199135704,18,10,true,false,false,10:30
657,"Blythe Road West, Shepherd's Bush",51.4996806,-0.221791552,0,21,true,false,false,10:30
658,"Ethelburga Estate, Battersea Park",51.47729232,-0.16478637,14,14,true,false,false,10:30
659,"Grant Road West, Clapham Junction",51.46437067,-0.174619404,33,23,true,false,false,10:30
747,"Ormonde Gate, Chelsea",51.48796408,-0.161765173,11,12,true,false,false,10:30
746,"Lots Road, West Chelsea",51.4795738,-0.17903854,15,8,true,false,false,10:30
745,"Upcerne Road, West Chelsea",51.47816972,-0.18243547,27,2,true,false,false,10:30
744,"Ingrave Street, Battersea",51.46745485,-0.172293499,14,16,true,false,false,10:30
751,"Newton Street, Covent Garden",51.51612862,-0.120909408,19,3,true,false,false,10:30
750,"Culvert Road, Battersea",51.4710956,-0.157850096,20,7,true,false,false,10:30
749,"Haggerston Road, Haggerston",51.53932857,-0.074284675,20,16,true,false,false,10:30
748,"Hertford Road, De Beauvoir Town",51.53727795,-0.079201849,1,24,true,false,false,10:30
739,"Hortensia Road, West Brompton",51.48176572,-0.185273723,8,20,true,false,false,10:30
738,"Imperial Road, Sands End",51.47514228,-0.187278987,4,33,true,false,false,10:30
737,"Fulham Broadway, Walham Green",51.47993289,-0.19411695,16,7,true,false,false,10:30
736,"Queensdale Road, Shepherd's Bush",51.50659035,-0.216104479,26,5,true,false,false,10:30
743,"Oxford Road, Putney",51.46079243,-0.212607684,23,6,true,false,false,10:30
742,"Blenheim Crescent, Ladbroke Grove",51.51510818,-0.208565479,1,21,true,false,false,10:30
741,"Freston Road, Avondale",51.5129814,-0.219486603,16,7,true,false,false,10:30
740,"Sirdar Road, Avondale",51.51092871,-0.214594781,11,15,true,false,false,10:30
762,"Storey's Gate, Westminster",51.50070305,-0.129698963,14,7,true,false,false,10:30
763,"Mile End Park Leisure Centre, Mile End",51.52059714,-0.032566533,12,35,true,false,false,10:30
760,"Rossmore Road, Marylebone",51.52526975,-0.163795009,5,13,true,false,false,10:30
761,"Humbolt Road, Fulham",51.48321729,-0.211860644,6,21,true,false,false,10:30
766,"Ram Street, Wandsworth",51.45752945,-0.192165613,5,0,true,false,false,10:30
767,"Wandsworth Museum, Wandsworth",51.45705988,-0.200806304,28,1,true,false,false,10:30
764,"St. John's Road, Clapham Junction",51.46239255,-0.16829214,28,4,true,false,false,10:30
765,"Ranelagh Gardens, Fulham",51.46760141,-0.20682737,27,12,true,false,false,10:30
754,"Grenfell Road, Avondale",51.5129006,-0.214762686,15,9,true,false,false,10:30
755,"The Vale, Chelsea",51.48512191,-0.174971902,9,15,true,false,false,10:30
752,"Manfred Road, East Putney",51.45816465,-0.20600248,23,6,true,false,false,10:30
753,"Hammersmith Town Hall, Hammersmith",51.49263658,-0.234094148,16,12,true,false,false,10:30
758,"Westbourne Park Road, Portobello",51.51787005,-0.201005397,4,19,true,false,false,10:30
759,"Broadley Terrace, Marylebone",51.52456169,-0.165668686,11,7,true,false,false,10:30
756,"Prince of Wales Drive, Battersea Park",51.47515398,-0.159169801,11,10,true,false,false,10:30
757,"Harcourt Terrace, West Brompton",51.48795853,-0.187404506,8,16,true,false,false,10:30
713,"Hawley Crescent, Camden Town",51.54100708,-0.14326094,15,7,true,false,false,10:30
712,"Mile End Stadium, Mile End",51.51854104,-0.034903714,21,1,true,false,false,10:30
715,"Aylward Street, Stepney",51.51563007,-0.049067243,8,14,true,false,false,10:30
714,"Stewart's Road, Nine Elms",51.47311696,-0.137235175,12,16,true,false,false,10:30
717,"Dunston Road , Haggerston",51.53658514,-0.075885686,9,33,true,false,false,10:30
716,"Stainsby Road , Poplar",51.51542791,-0.02356501,1,23,true,false,false,10:30
719,"Victoria Park Road, Hackney Central",51.53642464,-0.054162264,8,24,true,false,false,10:30
718,"Ada Street, Hackney Central",51.53571683,-0.060291813,34,11,true,false,false,10:30
705,"Upper Richmond Road, East Putney",51.45971528,-0.212145939,7,18,true,false,false,10:30
704,"Mexfield Road, East Putney",51.45682071,-0.202802098,13,5,true,false,false,10:30
707,"Barons Court Station, West Kensington",51.49021762,-0.215087092,22,10,true,false,false,10:30
706,"Snowsfields, London Bridge",51.50215353,-0.083632928,27,3,true,false,false,10:30
709,"Montserrat Road , Putney",51.46321128,-0.215550761,16,7,true,false,false,10:30
708,"Disraeli Road, Putney",51.46161068,-0.21614583,23,8,true,false,false,10:30
711,"Everington Street, Fulham",51.48335692,-0.216305546,7,24,true,false,false,10:30
710,"Albert Bridge Road, Battersea Park",51.47439218,-0.163347594,9,9,true,false,false,10:30
728,"Putney Bridge Road, East Putney",51.46199911,-0.206240805,18,11,true,false,false,10:30
729,"St. Peter's Terrace, Fulham",51.47893931,-0.208485293,0,22,true,false,false,10:30
730,"Bridge Avenue, Hammersmith",51.49208492,-0.229116862,18,0,true,false,false,10:30
731,"Michael Road, Walham Green",51.47727637,-0.189210466,16,20,true,false,false,10:30
732,"Duke Street Hill, London Bridge",51.50630441,-0.087262995,1,20,true,false,false,10:30
733,"Park Lane, Mayfair",51.50542628,-0.150817316,14,2,true,false,false,10:30
734,"Plough Terrace, Clapham Junction",51.46230566,-0.175407201,22,8,true,false,false,10:30
735,"Grant Road East, Clapham Junction",51.46489445,-0.17302926,34,1,true,false,false,10:30
720,"Star Road, West Kensington",51.48724429,-0.205279052,13,11,true,false,false,10:30
721,"Wendon Street, Old Ford",51.53603947,-0.026262677,2,14,true,false,false,10:30
722,"Finnis Street, Bethnal Green",51.52458353,-0.058631453,3,16,true,false,false,10:30
723,"Stephendale Road, Sands End",51.46822047,-0.190346493,30,16,true,false,false,10:30
724,"Alma Road, Wandsworth",51.45799126,-0.184806157,13,15,true,false,false,10:30
725,"Thessaly Road North, Nine Elms",51.47732253,-0.138748723,24,3,true,false,false,10:30
726,"Alfreda Street, Battersea Park",51.47505096,-0.150908371,13,8,true,false,false,10:30
727,"Chesilton Road, Fulham",51.47569809,-0.20587627,11,11,true,false,false,10:30
774,"Hurlingham Park, Parsons Green",51.470131,-0.20464,16,3,true,false,false,10:30
775,"Little Brook Green, Brook Green",51.496664,-0.223868,24,7,true,false,false,10:30
773,"Tallis Street, Temple",51.511891,-0.107349,20,3,true,false,false,10:30
770,"Gwendwr Road, West Kensington",51.491026,-0.209121,13,17,true,false,false,10:30
771,"Rifle Place, Avondale",51.509224,-0.216016,16,5,true,false,false,10:30
769,"Sandilands Road, Walham Green",51.473611,-0.191803,12,8,true,false,false,10:30
